[
  {
    "name": "مستشفى الملك فهد العام بجدة",
    "address": "حي الشاطئ، جدة",
    "lat": 21.6148,
    "lng": 39.1558,
    "hours": "24/7",
    "phone": "920002000",
    "sector": "public"
  },
  {
    "name": "مستشفى الملك عبدالعزيز - جدة (قسم بنك الدم)",
    "address": "الرويس، جدة",
    "lat": 21.5034,
    "lng": 39.1868,
    "hours": "08:00–20:00",
    "phone": "0126401000",
    "sector": "public"
  },
  {
    "name": "بنك الدم الإقليمي - جدة (المختبر الإقليمي)",
    "address": "الرحاب/الرويس، جدة",
    "lat": 21.5145,
    "lng": 39.2131,
    "hours": "24/7",
    "phone": "0126581000",
    "sector": "public"
  },
  {
    "name": "مستشفى شرق جدة",
    "address": "طريق الحرمين، حي السامر",
    "lat": 21.6231,
    "lng": 39.2611,
    "hours": "07:30–21:00",
    "phone": "0126655000",
    "sector": "public"
  },
  {
    "name": "مستشفى جامعة الملك عبدالعزيز",
    "address": "حي الجامعة، جدة",
    "lat": 21.4932,
    "lng": 39.2469,
    "hours": "08:00–17:00",
    "phone": "0126400000",
    "sector": "public"
  },
  {
    "name": "مجمع الملك عبدالله الطبي - شمال جدة",
    "address": "أبحر الشمالية، جدة",
    "lat": 21.7478,
    "lng": 39.0915,
    "hours": "24/7",
    "phone": "920013000",
    "sector": "public"
  },
  {
    "name": "مستشفى الملك فيصل التخصصي ومركز الأبحاث - جدة",
    "address": "حي الروضة، جدة",
    "lat": 21.5485,
    "lng": 39.1572,
    "hours": "08:00–17:00",
    "phone": "920012312",
    "sector": "public"
  },
  {
    "name": "مستشفى الثغر بجدة",
    "address": "حي الثغر، جدة",
    "lat": 21.4647,
    "lng": 39.2325,
    "hours": "08:00–22:00",
    "phone": "0126203333",
    "sector": "public"
  },
  {
    "name": "مستشفى العزيزية للأطفال",
    "address": "حي العزيزية، جدة",
    "lat": 21.4876,
    "lng": 39.1974,
    "hours": "08:00–20:00",
    "phone": "0126722222",
    "sector": "public"
  },
  {
    "name": "مستشفى الولادة والأطفال بجدة",
    "address": "المعادي، جدة",
    "lat": 21.4841,
    "lng": 39.2148,
    "hours": "24/7",
    "phone": "0126333333",
    "sector": "public"
  },
  {
    "name": "مستشفى الأمل للصحة النفسية - جدة",
    "address": "حي الحمراء، جدة",
    "lat": 21.5181,
    "lng": 39.1569,
    "hours": "08:00–16:00",
    "phone": "0126653000",
    "sector": "public"
  },
  {
    "name": "مستشفى القوات المسلحة - قاعدة الملك فيصل البحرية (خدمة دم)",
    "address": "الشمالية، جدة",
    "lat": 21.7092,
    "lng": 39.1522,
    "hours": "08:00–14:30",
    "phone": "0122880000",
    "sector": "public"
  },
  {
    "name": "مستشفى الملك خالد للحرس الوطني - جدة",
    "address": "الواحة، جدة",
    "lat": 21.5719,
    "lng": 39.2188,
    "hours": "08:00–16:00",
    "phone": "0122266666",
    "sector": "public"
  },
  {
    "name": "مستشفى الملك عبدالعزيز للقوات المسلحة (خدمة بنك الدم)",
    "address": "الخرمشية، جدة",
    "lat": 21.5175,
    "lng": 39.1055,
    "hours": "08:00–14:30",
    "phone": "0126650000",
    "sector": "public"
  },
  {
    "name": "مستشفى الدكتور سليمان فقيه",
    "address": "حي الرويس، طريق المدينة",
    "lat": 21.5367,
    "lng": 39.1663,
    "hours": "24/7",
    "phone": "920012777",
    "sector": "private"
  },
  {
    "name": "المستشفى السعودي الألماني - جدة",
    "address": "حي الشاطئ، طريق الملك",
    "lat": 21.6077,
    "lng": 39.1206,
    "hours": "24/7",
    "phone": "920007997",
    "sector": "private"
  },
  {
    "name": "المركز الطبي الدولي (IMC)",
    "address": "شارع حائل، الحمراء",
    "lat": 21.5432,
    "lng": 39.1614,
    "hours": "24/7",
    "phone": "920027778",
    "sector": "private"
  },
  {
    "name": "مستشفى الأطباء المتحدون",
    "address": "الروضة، جدة",
    "lat": 21.5605,
    "lng": 39.1429,
    "hours": "24/7",
    "phone": "920001221",
    "sector": "private"
  },
  {
    "name": "مستشفى السلامة",
    "address": "السلامة، جدة",
    "lat": 21.5782,
    "lng": 39.1468,
    "hours": "24/7",
    "phone": "0122575555",
    "sector": "private"
  },
  {
    "name": "مستشفى حي الجامعة الطبي",
    "address": "حي الجامعة، جدة",
    "lat": 21.4857,
    "lng": 39.2460,
    "hours": "08:00–22:00",
    "phone": "0126800000",
    "sector": "private"
  },
  {
    "name": "مستشفى جدة الوطني الجديد",
    "address": "حي بترومين، جدة",
    "lat": 21.4751,
    "lng": 39.2020,
    "hours": "24/7",
    "phone": "0126675000",
    "sector": "private"
  },
  {
    "name": "مستشفى المغربي للعيون (خدمة تبرع صفائح بالتنسيق)",
    "address": "الروضة، جدة",
    "lat": 21.5527,
    "lng": 39.1539,
    "hours": "08:00–17:00",
    "phone": "920018000",
    "sector": "private"
  },
  {
    "name": "مستشفى المستقبل",
    "address": "حي البغدادية، جدة",
    "lat": 21.4937,
    "lng": 39.1941,
    "hours": "24/7",
    "phone": "0126875252",
    "sector": "private"
  },
  {
    "name": "مستشفى بدر الدين فتيحي (بكاره) — (IMC Clinics)",
    "address": "الرويس، جدة",
    "lat": 21.5448,
    "lng": 39.1628,
    "hours": "08:00–22:00",
    "phone": "920027778",
    "sector": "private"
  },
  {
    "name": "مستشفى المركز الطبي الدولي كيدز",
    "address": "الحمراء، جدة",
    "lat": 21.5409,
    "lng": 39.1642,
    "hours": "08:00–22:00",
    "phone": "920027778",
    "sector": "private"
  },
  {
    "name": "مستشفى جدّه الأهلي",
    "address": "الصفا، جدة",
    "lat": 21.5701,
    "lng": 39.2270,
    "hours": "24/7",
    "phone": "0126933555",
    "sector": "private"
  },
  {
    "name": "مستشفى المغربي للأسنان - جدة",
    "address": "الروضة، جدة",
    "lat": 21.5556,
    "lng": 39.1531,
    "hours": "09:00–21:00",
    "phone": "920018000",
    "sector": "private"
  },
  {
    "name": "مستشفى عرفان وبن لادن",
    "address": "حي مشرفة، جدة",
    "lat": 21.5244,
    "lng": 39.1930,
    "hours": "24/7",
    "phone": "0126754444",
    "sector": "private"
  },
  {
    "name": "مستشفى غسان نجيب فرعون",
    "address": "الروضة، جدة",
    "lat": 21.5609,
    "lng": 39.1461,
    "hours": "24/7",
    "phone": "920010164",
    "sector": "private"
  },
  {
    "name": "مدينة الملك عبدالله الطبية - مركز نقل الدم (تنسيق إحالة)",
    "address": "طريق مكة، ارتباط بإحالات جدة",
    "lat": 21.4300,
    "lng": 39.7800,
    "hours": "08:00–16:00",
    "phone": "0125533333",
    "sector": "public"
  }
]
